station,station_latitude,station_longitude,venue,venue_latitude,venue_longitude,venue_category
"Bray, Dublin",53.2045200,-6.1009932,Bray Daly Station,53.2045200,-6.1009932,Train Station
"Seapoint, Dublin",53.2991056,-6.1654730,Seapoint Train Station,53.2991056,-6.1654730,Train Station
"Pearse, Dublin",53.3433274,-6.2483149,Pearse Station,53.3433274,-6.2483149,Train Station
"Shankhill, Dublin",53.2365076,-6.1171422,Shankhill Station,53.2365076,-6.1171422,Train Station
"Glenageary, Dublin",53.2811829,-6.1230903,Glenageary Station,53.2811829,-6.1230903,Train Station
"Dun Laoghaire, Dublin",53.2949000,-6.1345480,Dun Laoghaire Station,53.2949000,-6.1345480,Train Station
"Dalkey, Dublin",53.2758000,-6.1033000,Dun Laoghaire Station,53.2758000,-6.1033000,Train Station

